City_ID,City,Lat,Lng,Max Temp,Humidity,Cloudiness,Wind Speed,Country,Date
0,port elizabeth,-33.918,25.5701,283.31,87,0,1.54,ZA,1686077987
1,castillo de locubin,37.5286,-3.9422,301.42,38,97,4.29,ES,1686078504
2,margaret river,-33.95,115.0667,285.02,70,100,8.83,AU,1686078252
3,ambodifotatra,-16.9833,49.85,298.59,78,7,6.88,MG,1686078505
4,vyazemskiy,47.5378,134.7525,284.61,91,60,1.29,RU,1686078505
5,lata,40.1629,-8.3327,294.63,65,100,3.39,PT,1686078407
6,port-aux-francais,-49.35,70.2167,275.68,77,100,9.28,TF,1686078257
7,baykal'sk,51.5058,104.1469,284.05,66,5,4.58,RU,1686078402
8,uturoa,-16.7333,-151.4333,299.54,71,77,6.87,PF,1686078345
9,touros,-5.1989,-35.4608,300.65,76,0,7.2,BR,1686078051
10,tannum sands,-23.9504,151.3693,291.09,72,100,3.6,AU,1686078506
11,laguna,38.421,-121.4238,296.49,60,0,7.72,US,1686078306
12,tura,25.5198,90.2201,300.35,54,0,1.93,IN,1686078350
13,chibougamau,49.9168,-74.3659,288.94,33,75,6.17,CA,1686078339
14,edinburgh of the seven seas,-37.0676,-12.3116,285.95,66,97,8.73,SH,1686078245
15,enewetak,11.3474,162.3373,300.98,81,84,6.45,MH,1686078347
16,salalah,17.0151,54.0924,303.2,79,20,3.09,OM,1686078391
17,solnechnyy,50.7214,136.6319,284.14,82,100,1.23,RU,1686078508
18,bethel,41.3712,-73.414,296.2,54,0,3.09,US,1686078259
19,jaru,-10.4389,-62.4664,302.95,64,73,1.69,BR,1686078509
20,palangkaraya,-2.2,113.8333,296.71,99,100,0.42,ID,1686078510
21,constantia,44.1833,28.65,288.53,66,80,5.0,RO,1686078379
22,puerto natales,-51.7236,-72.4875,280.4,61,40,15.43,CL,1686078258
23,papatowai,-46.5619,169.4708,277.95,87,51,2.1,NZ,1686078352
24,amper,9.35,9.7,301.58,58,45,2.94,NG,1686078511
25,mabaruma,8.2,-59.7833,301.74,80,21,2.39,GY,1686078511
26,grytviken,-54.2811,-36.5092,275.78,97,97,1.98,GS,1686078263
27,bilibino,68.0546,166.4372,281.98,59,100,1.32,RU,1686078327
28,ust-nera,64.5667,143.2,281.96,87,100,3.75,RU,1686078371
29,blackmans bay,-43.0167,147.3167,284.12,95,6,3.01,AU,1686078325
30,inarajan village,13.2736,144.7484,301.69,91,100,6.05,GU,1686078513
31,waitangi,-43.9535,-176.5597,283.61,69,100,6.09,NZ,1686078245
32,christchurch,-43.5333,172.6333,271.26,100,40,1.54,NZ,1686078295
33,zvezdnyy,57.7325,56.3147,285.48,91,100,0.71,RU,1686078514
34,puerto ayora,-0.7393,-90.3518,301.13,98,79,3.13,EC,1686078329
35,adamstown,-25.066,-130.1015,294.27,57,41,7.57,PN,1686078248
36,lubang,13.8584,120.124,301.59,74,96,1.7,PH,1686078514
37,hsinchu,24.8036,120.9686,301.96,82,100,0.89,TW,1686078514
38,ushuaia,-54.8,-68.3,279.94,81,40,11.83,AR,1686078260
39,coahuayana de hidalgo,18.7,-103.6583,306.45,44,1,4.16,MX,1686078253
40,tralee,52.2704,-9.7026,291.83,70,63,0.65,IE,1686078514
41,isangel,-19.55,169.2667,295.48,78,100,6.85,VU,1686078515
42,albany,42.6001,-73.9662,292.56,66,100,2.68,US,1686078035
43,jamestown,42.097,-79.2353,295.66,34,0,6.17,US,1686078340
44,vernon,50.2581,-119.2691,298.11,22,0,2.06,CA,1686078062
45,portland,45.5234,-122.6762,301.74,36,20,4.12,US,1686078202
46,port mathurin,-19.6833,63.4167,297.94,68,0,9.55,MU,1686078327
47,saipan,15.1355,145.701,300.73,100,40,6.69,MP,1686078021
48,korla,41.7597,86.1469,298.73,24,21,3.37,CN,1686078341
49,invercargill,-46.4,168.35,275.43,92,56,1.75,NZ,1686078258
50,yellowknife,62.456,-114.3525,282.44,100,100,7.72,CA,1686078076
51,qianzhou,28.3167,109.7167,292.77,95,0,0.57,CN,1686078516
52,talnakh,69.4865,88.3972,279.38,83,31,3.24,RU,1686078341
53,kralendijk,12.15,-68.2667,301.17,85,100,7.91,BQ,1686078516
54,avarua,-21.2078,-159.775,296.18,73,75,1.54,CK,1686078074
55,umba,66.6871,34.3429,278.79,62,98,2.89,RU,1686078334
56,port saint john's,-31.6229,29.5448,290.11,70,0,3.17,ZA,1686078260
57,cantaura,9.3057,-64.3584,304.98,47,95,3.58,VE,1686078516
58,olonkinbyen,70.9221,-8.7187,274.27,69,100,1.75,SJ,1686078250
59,porirua,-41.1333,174.85,283.83,91,50,5.23,NZ,1686078517
60,magadan,59.5667,150.8,280.65,73,76,1.28,RU,1686078517
61,arraial do cabo,-22.9661,-42.0278,297.13,73,0,4.12,BR,1686078130
62,manokwari,-0.8667,134.0833,299.59,77,100,2.22,ID,1686078517
63,veraval,20.9,70.3667,302.07,81,0,6.09,IN,1686078517
64,kirensk,57.7853,108.1119,277.78,79,98,0.56,RU,1686078517
65,susuman,62.7833,148.1667,283.58,67,32,1.35,RU,1686078348
66,banda aceh,5.5577,95.3222,300.45,76,100,7.02,ID,1686078518
67,san andres,12.5847,-81.7006,301.7,73,100,0.44,CO,1686078518
68,badger,64.8,-147.5333,295.37,43,20,0.0,US,1686078256
69,iqaluit,63.7506,-68.5145,280.0,70,40,5.66,CA,1686078243
70,hermanus,-34.4187,19.2345,286.19,63,100,1.01,ZA,1686078308
71,kapa'a,22.0752,-159.319,299.33,80,75,4.12,US,1686078261
72,west island,-12.1568,96.8225,298.14,83,75,5.66,CC,1686078247
73,wailua homesteads,22.0669,-159.378,298.59,80,75,4.12,US,1686078246
74,san luis de la loma,17.2706,-100.8939,304.96,52,0,4.05,MX,1686078519
75,chonchi,-42.6128,-73.8092,285.44,70,11,1.92,CL,1686078368
76,geraldton,-28.7667,114.6,287.38,72,75,3.09,AU,1686078252
77,ilulissat,69.2167,-51.1,272.16,100,75,2.57,GL,1686078258
78,nantucket,41.2835,-70.0995,295.23,63,0,7.2,US,1686078345
79,kirakira,-10.4544,161.9205,298.81,87,100,2.55,SB,1686078520
80,tolanaro,-25.0319,46.9987,296.19,88,0,0.0,MG,1686078330
81,kidal,18.4411,1.4078,309.3,8,13,4.7,ML,1686078358
82,bredasdorp,-34.5322,20.0403,283.14,72,23,0.5,ZA,1686078244
83,tolstoy-yurt,43.4444,45.7722,293.33,73,75,2.0,RU,1686078520
84,aasiaat,68.7098,-52.8699,272.64,86,100,2.48,GL,1686078200
85,barkly west,-28.5354,24.5215,287.34,21,0,3.93,ZA,1686078520
86,anadyr,64.75,177.4833,280.43,81,20,7.0,RU,1686078250
87,antsiranana,-12.2787,49.2917,298.1,82,32,7.73,MG,1686078440
88,krasnoturansk,54.3186,91.5639,291.35,62,5,1.32,RU,1686078521
89,zhongxing,33.7039,118.6792,294.16,81,100,3.41,CN,1686078521
90,camabatela,-8.1881,15.375,292.09,53,100,0.35,AO,1686078521
91,ulsteinvik,62.3432,5.8487,284.76,79,1,1.34,NO,1686078413
92,khorixas,-20.3667,14.9667,290.51,27,0,1.74,NA,1686078521
93,miramichi,47.0043,-65.4654,281.44,98,100,5.48,CA,1686078521
94,mount gambier,-37.8333,140.7667,285.56,90,99,4.29,AU,1686078361
95,mikhaylovka,50.06,43.2379,288.95,64,98,2.96,RU,1686078522
96,thompson,55.7435,-97.8558,292.24,100,100,1.54,CA,1686078325
97,namibe,-15.1961,12.1522,292.07,75,6,5.43,AO,1686078414
98,alice springs,-23.7,133.8833,292.9,52,59,1.54,AU,1686078406
99,st. john's,47.5649,-52.7093,283.9,98,100,5.66,CA,1686078258
100,slave lake,55.2834,-114.769,287.14,58,0,2.06,CA,1686078345
101,karratha,-20.7377,116.8463,291.03,48,54,5.23,AU,1686078522
102,haiku-pauwela,20.9219,-156.3051,299.16,64,20,8.23,US,1686078337
103,colonia,50.9333,6.95,297.49,42,0,2.57,DE,1686078084
104,udachny,66.4167,112.4,275.07,74,9,2.77,RU,1686078366
105,sur,22.5667,59.5289,307.49,40,0,3.97,OM,1686078467
106,calvinia,-31.4707,19.776,286.35,34,0,2.54,ZA,1686078523
107,saint-louis du nord,19.9333,-72.7167,302.75,74,100,3.99,HT,1686078523
108,crane,31.3974,-102.3501,300.65,35,100,3.26,US,1686078250
109,onega,63.9061,38.1404,277.16,79,64,2.21,RU,1686078523
110,barranca,-10.75,-77.7667,297.0,67,5,3.88,PE,1686078524
111,astrakhan,46.3497,48.0408,293.1,42,0,4.02,RU,1686078524
112,fortaleza,-3.7227,-38.5247,301.22,74,20,7.2,BR,1686078307
113,bundi,25.4417,75.6417,308.78,21,65,1.32,IN,1686078524
114,sorong,-0.8833,131.25,298.97,88,100,3.14,ID,1686078524
115,dalandzadgad,43.5708,104.425,291.16,37,14,2.47,MN,1686078390
116,tyler,32.3513,-95.3011,304.5,56,0,1.34,US,1686078233
117,crucecita,-28.95,-58.9833,301.12,47,0,5.02,AR,1686078525
118,parola,20.8833,75.1167,306.46,36,21,5.59,IN,1686078525
119,loudeac,48.1783,-2.7543,287.97,83,0,5.66,FR,1686078525
120,piti village,13.4626,144.6933,301.64,89,0,5.66,GU,1686078525
121,iskateley,67.6803,53.1512,277.88,84,98,6.38,RU,1686078353
122,megion,61.0296,76.1136,292.16,47,1,3.08,RU,1686078525
123,swakopmund,-22.6833,14.5333,287.03,85,0,1.09,NA,1686078525
124,rawson,-43.3002,-65.1023,289.14,28,0,11.76,AR,1686078393
125,lompoc,34.6391,-120.4579,292.47,79,100,5.81,US,1686078309
126,laranjeiras do sul,-25.4078,-52.4161,294.01,59,2,1.84,BR,1686078526
127,port lincoln,-34.7333,135.8667,289.76,80,13,4.18,AU,1686078326
128,carnarvon,-24.8667,113.6333,291.97,58,70,5.38,AU,1686078095
129,amahai,-3.3333,128.9167,298.49,87,100,1.22,ID,1686078383
130,sarandi grande,-33.7333,-56.3333,292.84,65,29,4.59,UY,1686078526
131,pervomayskoye,43.919,46.7102,295.14,36,99,2.97,RU,1686078526
132,aroma,15.8167,36.1333,307.46,34,90,4.41,SD,1686078527
133,vilyuchinsk,52.9306,158.4028,282.3,85,79,2.98,RU,1686078385
134,ribeira grande,38.5167,-28.7,293.37,64,40,8.94,PT,1686078338
135,isafjordur,66.0755,-23.124,277.17,81,100,3.6,IS,1686078251
136,richards bay,-28.783,32.0377,292.74,75,0,6.65,ZA,1686078120
137,montrose,38.4166,-108.2673,294.82,26,74,2.95,US,1686078527
138,lihue,21.9789,-159.3672,298.91,77,3,3.88,US,1686078155
139,nadym,65.5333,72.5167,288.21,52,40,3.44,RU,1686078348
140,vorgashor,67.5833,63.95,280.6,85,100,3.93,RU,1686078340
141,i-n-salah,27.1935,2.4607,309.32,14,100,5.05,DZ,1686078391
142,lucapa,-8.4192,20.7447,298.52,33,93,1.04,AO,1686078259
143,mananjary,-21.2167,48.3333,294.6,88,1,0.86,MG,1686078528
144,altai,46.3722,96.2583,286.27,43,1,2.36,MN,1686078262
145,porto belo,-27.1578,-48.5531,298.59,74,6,4.36,BR,1686078528
146,mount pearl,47.5166,-52.7813,283.44,98,100,6.17,CA,1686078243
147,hithadhoo,-0.6,73.0833,301.61,76,15,3.67,MV,1686078418
148,zhangatas,43.5667,69.75,299.77,18,4,2.56,KZ,1686078529
149,motygino,58.1831,94.7592,288.03,94,99,1.37,RU,1686078382
150,lebu,-37.6167,-73.65,286.78,77,100,2.76,CL,1686078354
151,cidreira,-30.1811,-50.2056,292.4,73,1,5.42,BR,1686078253
152,cambria,35.5641,-121.0808,288.99,85,100,0.89,US,1686078530
153,kavaratti,10.5669,72.642,302.92,75,88,8.14,IN,1686078248
154,hawaiian paradise park,19.5933,-154.9731,299.2,85,100,2.2,US,1686078247
155,punta arenas,-53.15,-70.9167,280.21,65,75,8.75,CL,1686078349
156,whistler,50.1164,-122.9695,300.13,24,1,0.38,CA,1686078531
157,port alfred,-33.5906,26.891,290.74,41,0,3.27,ZA,1686078152
158,qaqortoq,60.7167,-46.0333,276.09,89,100,0.46,GL,1686078339
159,coronel dorrego,-38.7187,-61.2873,291.11,62,100,6.52,AR,1686078531
160,lao cai,22.4833,103.95,297.67,97,89,0.52,VN,1686078531
161,pula,44.8683,13.8481,292.46,88,20,1.54,HR,1686078482
162,ancud,-41.8697,-73.8203,283.74,75,18,3.05,CL,1686078411
163,paita,-5.0892,-81.1144,299.54,67,76,5.63,PE,1686078532
164,prince rupert,54.3161,-130.3201,285.94,69,100,2.76,CA,1686078473
165,carrigaline,51.8117,-8.3986,288.01,72,20,5.14,IE,1686078532
166,ostrow mazowiecka,52.8024,21.8951,291.83,63,51,3.21,PL,1686078532
167,kabo,7.6994,18.629,296.69,86,100,0.93,CF,1686078532
168,tsiombe,-25.3,45.4833,293.44,96,4,2.8,MG,1686078440
169,ruza,55.699,36.1952,284.0,83,28,2.11,RU,1686078532
170,vila velha,-20.3297,-40.2925,297.56,62,20,5.14,BR,1686078250
171,ponta delgada,37.7333,-25.6667,291.55,94,75,13.89,PT,1686078397
172,northam,51.0333,-4.2167,290.51,72,2,5.03,GB,1686078341
173,ubajara,-3.8544,-40.9211,298.45,60,35,2.47,BR,1686078533
174,utrik,11.2278,169.8474,300.78,84,85,8.47,MH,1686078379
175,hasaki,35.7333,140.8333,292.16,94,83,5.98,JP,1686078369
176,pagar alam,-4.0167,103.2667,293.11,98,27,1.19,ID,1686078533
177,fortuna,40.5982,-124.1573,287.66,87,75,3.09,US,1686078343
178,tabou,4.423,-7.3528,298.86,88,100,4.4,CI,1686078533
179,sitka,57.0531,-135.33,283.09,81,75,0.0,US,1686078534
180,hadibu,12.65,54.0333,302.82,77,70,3.47,YE,1686078249
181,khanty-mansiysk,61.0042,69.0019,287.21,62,0,0.0,RU,1686078493
182,ambon,-3.6954,128.1814,301.41,77,40,2.06,ID,1686078363
183,olyokminsk,60.3736,120.4264,278.15,77,96,1.96,RU,1686078395
184,kutum,14.2,24.6667,295.15,62,100,3.98,SD,1686078534
185,nemuro,43.3236,145.575,283.66,92,100,4.42,JP,1686078333
186,ebaye,8.7748,167.7392,300.16,83,40,7.06,MH,1686078535
187,zyryanovsk,49.7386,84.2719,289.76,63,24,1.23,KZ,1686078535
188,kamogawa,35.1,140.1,291.13,95,100,2.63,JP,1686078535
189,al ghayzah,16.2079,52.176,301.72,80,7,4.73,YE,1686078535
190,muravlenko,63.7898,74.523,289.1,43,82,3.4,RU,1686078535
191,petropavlovsk-kamchatsky,53.0452,158.6483,281.48,61,75,2.0,RU,1686078345
192,happy valley-goose bay,53.3168,-60.3315,280.32,81,75,7.72,CA,1686078131
193,al bardiyah,31.7561,25.0865,294.04,84,10,6.26,LY,1686078535
194,longyearbyen,78.2186,15.6401,277.06,75,20,4.12,SJ,1686078329
195,qarauyl,48.9451,79.255,293.98,33,0,1.91,KZ,1686078536
196,broken hill,-31.95,141.4333,290.55,82,100,6.2,AU,1686078117
197,saint-joseph,-21.3667,55.6167,294.36,81,26,3.91,RE,1686078536
198,tiksi,71.6872,128.8694,275.0,95,52,1.33,RU,1686078254
199,ta`u,-14.2336,-169.5144,300.64,75,97,10.16,AS,1686078536
200,fomboni,-12.28,43.7425,300.41,76,21,5.69,KM,1686078537
201,nouadhibou,20.931,-17.0347,297.14,73,0,5.66,MR,1686078538
202,college,64.8569,-147.8028,295.42,41,20,0.45,US,1686078259
203,awjilah,29.1081,21.2869,307.15,18,100,8.87,LY,1686078538
204,ha'il,27.5219,41.6907,301.15,28,18,3.45,SA,1686078495
205,maitum,6.0392,124.4986,298.78,85,88,1.65,PH,1686078538
206,burley,42.5357,-113.7928,297.76,45,0,0.0,US,1686078539
207,novodvinsk,64.4165,40.8122,277.18,82,100,2.18,RU,1686078394
208,walvis bay,-22.9575,14.5053,287.09,91,0,1.02,NA,1686078539
209,stanley,54.868,-1.6985,284.55,81,75,1.54,GB,1686078262
210,makueni boma,-1.8041,37.6203,290.94,67,33,0.9,KE,1686078539
211,tazovsky,67.4667,78.7,283.91,70,100,4.39,RU,1686078376
212,matthew town,20.95,-73.6667,302.91,70,49,3.87,BS,1686078540
213,mil'kovo,55.6078,37.7956,290.37,67,91,3.22,RU,1686078374
214,klaksvik,62.2266,-6.589,282.66,85,33,5.37,FO,1686078402
215,stornoway,58.2093,-6.3865,287.09,70,20,5.66,GB,1686078540
216,bintulu,3.1667,113.0333,298.38,94,20,1.03,MY,1686078327
217,la passe,45.5549,-0.8967,300.28,65,27,2.71,FR,1686078415
218,nova sintra,14.8667,-24.7167,295.06,74,6,0.29,CV,1686078377
219,reggane,26.7158,0.1714,309.25,14,100,0.76,DZ,1686078541
220,west end,26.6833,-78.9667,301.14,71,100,2.88,BS,1686078541
221,lagunas,-5.2269,-75.6753,302.17,71,99,1.71,PE,1686078541
222,montepuez,-13.1256,38.9997,291.46,70,0,1.9,MZ,1686078541
223,tindouf,27.6711,-8.1474,306.96,12,1,6.38,DZ,1686078541
224,antonio enes,-16.2325,39.9086,297.26,83,0,2.2,MZ,1686078542
225,glace bay,46.1969,-59.957,284.14,94,100,9.26,CA,1686078542
226,bodo,67.28,14.405,279.17,84,75,4.12,NO,1686078542
227,ashchysay,43.5542,68.8889,294.24,17,5,0.15,KZ,1686078412
228,vidor,30.1316,-94.0155,304.13,65,99,1.09,US,1686078421
229,mugia,43.1041,-9.2179,298.1,74,100,2.81,ES,1686078370
230,constitucion,-35.3333,-72.4167,290.14,76,100,4.86,CL,1686078357
231,whitehorse,60.7161,-135.0538,280.82,90,100,4.12,CA,1686078071
232,biryusinsk,55.9634,97.8235,288.39,74,100,1.48,RU,1686078543
233,cuyo,10.8525,121.0086,301.84,75,96,2.92,PH,1686078544
234,kiruna,67.8557,20.2251,278.66,56,100,4.63,SE,1686078544
235,carupano,10.6678,-63.2585,304.04,64,92,6.26,VE,1686078494
236,luganville,-15.5333,167.1667,297.64,83,90,4.87,VU,1686078544
237,new plymouth,-39.0667,174.0833,281.93,83,16,6.02,NZ,1686078394
238,praia da vitoria,38.7333,-27.0667,290.8,89,100,14.8,PT,1686078414
239,afaahiti,-17.75,-149.2833,300.08,76,100,6.75,PF,1686078263
240,chui,-33.6971,-53.4616,291.87,59,55,3.46,UY,1686078410
241,lorengau,-2.0226,147.2712,300.15,81,62,1.24,PG,1686078546
242,san carlos del zulia,9.0,-71.9135,306.78,54,34,0.85,VE,1686078546
243,porto novo,6.4965,2.6036,299.03,87,100,2.42,BJ,1686078414
244,yeppoon,-23.1333,150.7333,289.03,84,51,5.34,AU,1686078546
245,guerrero negro,27.9769,-114.0611,291.84,56,100,6.2,MX,1686078393
246,pisco,-13.7,-76.2167,295.18,68,2,5.66,PE,1686078340
247,yanacancha,-10.2411,-76.6456,284.84,46,88,3.16,PE,1686078547
248,wanning,18.8003,110.3967,299.92,90,100,5.33,CN,1686078547
249,arkhangel'sk,64.5401,40.5433,277.42,81,100,2.29,RU,1686078261
250,dunedin,-45.8742,170.5036,280.26,80,100,1.34,NZ,1686078340
251,bahia de kino,28.8333,-111.9333,306.99,38,100,4.89,MX,1686078547
252,cabedelo,-6.9811,-34.8339,302.52,74,11,3.91,BR,1686078548
253,atafu village,-8.5421,-172.5159,301.47,75,27,4.88,TK,1686078351
254,jiayuguan,39.8167,98.3,291.33,24,2,2.19,CN,1686078405
255,hanzhong,33.0728,107.0303,292.81,68,100,0.38,CN,1686078548
256,colchani,-20.3,-66.9333,281.24,23,0,3.26,BO,1686078548
257,la ronge,55.1001,-105.2842,290.27,94,100,3.09,CA,1686078548
258,monterrey,25.6667,-100.3167,303.55,54,5,3.21,MX,1686077857
259,funafuti,-8.5243,179.1942,302.13,73,14,5.57,TV,1686078549
260,corabia,43.7833,24.5,293.47,61,100,3.83,RO,1686078549
261,bridgewater,44.3835,-64.5155,285.72,95,100,2.68,CA,1686078549
262,kodiak,57.79,-152.4072,279.88,100,100,5.66,US,1686078343
263,xichang,27.8964,102.2634,294.49,70,97,0.72,CN,1686078549
264,manismata,-2.4667,111.0333,296.99,99,96,1.18,ID,1686078324
265,kill devil hills,36.0307,-75.676,298.16,66,0,3.6,US,1686078544
266,caleta de carquin,-11.0925,-77.6267,297.05,70,14,3.54,PE,1686078550
267,garachico,28.7781,-17.7646,297.21,47,40,3.6,ES,1686078550
268,sajir,25.1825,44.5996,306.51,19,67,2.31,SA,1686078550
269,novyy buh,47.6931,32.5216,290.37,50,88,2.81,UA,1686078550
270,kailua-kona,19.6406,-155.9956,300.53,77,20,4.63,US,1686078353
271,shimoda,34.6667,138.95,289.87,94,100,1.13,JP,1686078551
272,rio rico,31.4715,-110.9765,306.03,12,0,8.75,US,1686078551
273,island harbour,50.724,-1.2758,291.47,64,0,2.24,GB,1686078551
274,flying fish cove,-10.4217,105.6791,297.97,78,75,5.14,CX,1686078374
275,jodhpur,26.2867,73.03,304.16,37,21,2.99,IN,1686078339
276,muisne,0.6,-80.0333,300.03,85,55,4.18,EC,1686078551
277,kencong,-8.2833,113.3667,296.59,94,99,0.87,ID,1686078551
278,severo-yeniseyskiy,60.3725,93.0408,286.67,97,0,1.85,RU,1686078403
279,karasu,41.071,30.7854,289.84,91,11,4.18,TR,1686078552
280,arkadelphia,34.1209,-93.0538,306.73,58,20,1.54,US,1686078552
281,waddan,29.1614,16.139,306.99,18,100,3.97,LY,1686078552
282,kui buri,12.0828,99.8543,299.5,84,100,2.76,TH,1686078552
283,kupang,-10.1667,123.5833,296.02,83,6,3.65,ID,1686078552
284,allapalli,19.4167,80.0667,307.09,19,48,0.47,IN,1686078552
285,sibolga,1.7427,98.7792,297.79,88,100,1.48,ID,1686078553
286,katsuren-haebaru,26.3369,127.8719,299.16,100,53,4.59,JP,1686078553
287,santyoku,37.4406,129.1708,289.89,78,0,3.52,KR,1686078553
288,eirunepe,-6.6603,-69.8736,302.26,72,83,0.93,BR,1686078246
289,new norfolk,-42.7826,147.0587,284.77,88,21,1.25,AU,1686078327
290,hami,42.8,93.45,299.11,18,0,2.77,CN,1686078554
291,sisimiut,66.9395,-53.6735,273.25,83,99,4.14,GL,1686078332
292,cabo san lucas,22.8909,-109.9124,306.82,60,0,5.69,MX,1686078136
293,hobyo,5.3505,48.5268,300.97,80,100,10.28,SO,1686078378
294,salinopolis,-0.6136,-47.3561,301.7,71,18,4.36,BR,1686078554
295,sedalia,38.7045,-93.2283,303.39,28,0,0.0,US,1686078554
296,sola,-13.8833,167.55,299.03,81,100,8.25,VU,1686078554
297,vung tau,10.346,107.0843,299.85,86,100,4.96,VN,1686078555
298,ormond-by-the-sea,29.3491,-81.0665,304.87,60,40,4.63,US,1686078555
299,tazacorte,28.629,-17.9293,298.69,84,40,3.6,ES,1686078555
300,sakleshpur,12.9667,75.7833,294.26,96,100,4.24,IN,1686078555
301,tavda,58.0425,65.2726,288.46,52,100,2.49,RU,1686078555
302,mount isa,-20.7333,139.5,286.02,82,80,0.0,AU,1686078363
303,lautoka,-17.6167,177.4667,296.07,83,100,2.57,FJ,1686078556
304,tilcara,-23.5776,-65.3509,289.46,19,0,0.17,AR,1686078556
305,ola,59.5833,151.2833,280.0,75,88,0.43,RU,1686078354
306,torbat-e jam,35.244,60.6225,300.84,14,89,4.18,IR,1686078439
307,kas,36.2018,29.6377,296.17,69,0,2.84,TR,1686078556
308,itaituba,-4.2761,-55.9836,308.24,49,40,3.6,BR,1686078386
309,cestos city,5.46,-9.5828,298.75,89,100,4.64,LR,1686078557
310,montdidier,49.75,2.5833,295.14,82,0,4.26,FR,1686078557
311,perry,37.2506,-83.1999,302.25,24,10,2.4,US,1686078557
312,mansa,29.9833,75.3833,303.49,36,14,1.11,IN,1686078557
313,vorkuta,67.5,64.0,280.69,85,100,4.01,RU,1686078557
314,zhangye,38.9342,100.4517,292.21,27,100,2.07,CN,1686078557
315,quibdo,5.6947,-76.6611,303.9,65,76,1.47,CO,1686078558
316,oropesa del mar,40.1,0.15,296.98,70,100,3.14,ES,1686078558
317,fale old settlement,-9.3852,-171.2468,301.64,76,11,5.78,TK,1686078342
318,pemba,-12.974,40.5178,298.54,83,40,3.09,MZ,1686078558
319,holualoa,19.6228,-155.9522,298.46,77,20,4.63,US,1686078396
320,dadu,26.7329,67.7763,309.97,38,0,4.9,PK,1686078558
321,hurricane,37.1753,-113.2899,306.11,7,0,8.41,US,1686078558
322,tiruchchendur,8.4833,78.1167,303.29,70,100,5.36,IN,1686078559
323,soledade,-28.8183,-52.5103,294.36,60,0,1.42,BR,1686078156
324,vikindu,-7.0067,39.2985,295.08,92,0,2.66,TZ,1686078559
325,torzhok,57.0436,34.9622,284.35,76,8,2.33,RU,1686078559
326,mary,37.0,62.5,303.23,10,58,3.36,TM,1686078559
327,klyuchi,52.2667,79.1667,295.71,45,71,2.92,RU,1686078377
328,taounate,34.5,-4.8333,295.57,81,100,4.7,MA,1686078560
329,dalcahue,-42.3628,-73.7022,284.93,62,20,3.6,CL,1686078560
330,brookings,44.3114,-96.7984,305.42,39,20,3.09,US,1686078415
331,agat village,13.3886,144.6585,301.67,90,0,5.66,GU,1686078560
332,kone,-21.0595,164.8658,290.73,72,21,2.23,NC,1686078404
333,kulhudhuffushi,6.6221,73.07,302.14,79,48,7.13,MV,1686078560
334,pimentel,-6.8367,-79.9342,302.31,58,0,5.66,PE,1686078560
335,noumea,-22.2763,166.4572,293.15,99,86,2.7,NC,1686078561
336,keflavik,64.0049,-22.5624,279.39,75,75,4.63,IS,1686078402
337,macau,22.2006,113.5461,302.0,84,40,5.14,MO,1686078561
338,erenhot,43.6475,111.9767,292.27,45,8,4.76,CN,1686078561
339,georgetown,5.4112,100.3354,300.38,83,20,2.68,MY,1686078300
340,merizo village,13.2658,144.6691,301.46,91,100,5.91,GU,1686078392
341,remire-montjoly,4.9167,-52.2667,303.17,66,0,6.17,GF,1686078389
342,longonjo,-12.9067,15.2533,291.11,40,5,1.68,AO,1686078562
343,labrador city,52.9463,-66.9114,279.1,75,100,9.77,CA,1686078562
344,beckley,37.7782,-81.1882,297.14,51,40,2.57,US,1686078282
345,itoman,26.1247,127.6694,299.16,94,75,4.63,JP,1686078354
346,chinde,26.8418,88.0763,293.2,53,1,2.62,NP,1686078349
347,san antonio oeste,-40.7319,-64.9477,291.83,29,80,9.19,AR,1686078563
348,westport,41.1415,-73.3579,298.76,55,0,2.06,US,1686078342
349,erdaojiang,41.7764,126.0319,284.15,97,55,1.53,CN,1686078563
350,fort mcmurray,56.7268,-111.381,291.92,36,0,6.69,CA,1686078020
351,siloam springs,36.1881,-94.5405,304.93,48,40,1.54,US,1686078563
352,hilo,19.7297,-155.09,300.53,80,98,3.13,US,1686078182
353,papao,-17.75,-149.55,300.97,73,99,6.49,PF,1686078563
354,praia,14.9215,-23.5087,299.45,69,0,2.57,CV,1686078564
355,ouesso,1.6136,16.0517,299.05,75,100,0.6,CG,1686078564
356,ascoli piceno,42.8548,13.5749,293.29,80,29,0.73,IT,1686078564
357,castillos,-34.1667,-53.8333,293.08,56,100,3.03,UY,1686078339
358,baoro,5.6667,15.9667,295.28,87,73,1.99,CF,1686078564
359,cliza,-17.6,-65.9333,294.54,13,0,0.43,BO,1686078564
360,hovd,48.0056,91.6419,293.63,34,7,0.5,MN,1686078507
361,kingston,17.997,-76.7936,306.62,69,20,8.75,JM,1686078166
362,pavlovsk,50.4578,40.1081,286.92,66,35,1.25,RU,1686078565
363,fuerte olimpo,-21.0415,-57.8738,304.02,38,0,2.32,PY,1686078565
364,namsos,64.4662,11.4957,281.18,71,100,3.09,NO,1686078566
365,bandarbeyla,9.4942,50.8122,301.91,75,100,6.21,SO,1686078566
366,twon-brass,4.3151,6.2418,299.19,85,100,3.87,NG,1686078566
367,chak azam sahu,30.75,73.0333,301.58,47,0,2.86,PK,1686078566
368,arvayheer,46.2639,102.775,284.84,71,98,3.08,MN,1686078566
369,douz,33.4663,9.0203,296.92,65,80,8.32,TN,1686078567
370,hamilton,39.1834,-84.5333,303.26,35,0,7.72,US,1686078340
371,faaa,-17.55,-149.6,301.13,65,40,1.03,PF,1686078567
372,gilgit,35.9221,74.3087,294.6,39,100,1.93,PK,1686078567
373,akureyri,65.6835,-18.0878,280.28,88,100,1.22,IS,1686078567
374,mermoz boabab,14.7065,-17.4758,302.46,79,14,5.33,SN,1686078567
375,bucaramanga,7.1254,-73.1198,298.02,80,84,1.82,CO,1686078568
376,saarijarvi,62.7049,25.254,284.35,53,100,2.89,FI,1686078568
377,laojunmiao,39.8333,97.7333,288.69,29,0,1.75,CN,1686078568
378,kargasok,59.0556,80.8572,294.13,62,100,3.97,RU,1686078568
379,raseiniai,55.3736,23.1217,287.62,64,0,1.92,LT,1686078328
380,sao joao da barra,-21.6403,-41.0511,298.2,66,6,6.11,BR,1686078392
381,gadzhiyevo,69.2551,33.3362,277.18,69,100,7.09,RU,1686078368
382,luena,-11.7833,19.9167,289.65,43,0,1.15,AO,1686078569
383,amory,33.9843,-88.4881,304.37,58,20,2.57,US,1686078570
384,kijang,35.2442,129.2139,290.68,85,43,2.36,KR,1686078570
385,trapani,37.8333,12.6667,291.64,76,100,0.57,IT,1686078570
386,vezirkopru,41.1436,35.4547,289.42,94,14,1.49,TR,1686078570
387,crete,35.1558,24.895,288.38,82,31,1.81,GR,1686078570
388,nyurba,63.2842,118.3319,275.95,80,6,1.36,RU,1686078570
389,santana,-0.0583,-51.1817,304.25,70,20,4.63,BR,1686078114
390,emerald,-23.5333,148.1667,286.12,88,0,3.07,AU,1686078571
391,rongelap,11.1635,166.8941,300.93,82,100,8.05,MH,1686078571
392,ribeira brava,32.65,-17.0667,296.5,95,97,7.16,PT,1686078571
393,baicheng,45.6167,122.8167,291.45,54,100,3.5,CN,1686078571
394,chernyshevskiy,63.0128,112.4714,273.78,73,8,0.49,RU,1686078351
395,minas de marcona,-15.2119,-75.1103,292.66,55,1,4.46,PE,1686078398
396,grand falls-windsor,48.9332,-55.6649,286.21,90,100,3.13,CA,1686078395
397,don luan,11.5333,106.9167,296.76,98,100,1.38,VN,1686078572
398,howrah,22.5892,88.3103,305.15,70,20,5.14,IN,1686078572
399,can-avid,11.9953,125.4472,297.94,92,20,2.05,PH,1686078572
400,lerwick,60.1545,-1.1494,284.15,75,100,3.61,GB,1686078572
401,chernomorskoye,45.5039,32.6997,291.28,65,20,3.84,UA,1686078572
402,dubnany,48.9169,17.09,292.41,92,100,1.93,CZ,1686078572
403,shanghai,31.2222,121.4581,293.67,85,1,3.0,CN,1686078386
404,yangambi,0.8102,24.4336,297.8,73,27,0.51,CD,1686078573
405,nar'yan-mar,67.6713,53.087,277.82,85,97,6.37,RU,1686078344
406,tshabong,-26.05,22.45,291.18,19,0,4.67,BW,1686078573
407,trairi,-3.2778,-39.2689,299.81,83,5,4.19,BR,1686078573
408,yulinshi,38.2906,109.7494,295.14,29,100,2.21,CN,1686078573
409,ylitornio,66.3089,23.6773,281.63,64,100,1.53,FI,1686078574
410,slikkerveer,51.8837,4.6068,293.15,70,100,5.14,NL,1686078574
411,fisterra,42.9049,-9.2629,298.01,75,100,0.94,ES,1686078574
412,aflou,34.1128,2.1023,295.4,37,100,4.95,DZ,1686078574
413,north platte,41.1239,-100.7654,302.1,43,0,3.13,US,1686078574
414,ghadamis,30.1337,9.5007,300.69,29,27,6.52,LY,1686078574
415,langepas,61.2544,75.2124,288.84,46,3,2.47,RU,1686078574
416,polyarnyy,69.1989,33.4478,277.38,69,100,7.08,RU,1686078575
417,tocopilla,-22.092,-70.1979,293.34,68,15,3.18,CL,1686078123
418,formosa do rio preto,-11.0483,-45.1931,305.44,27,0,2.61,BR,1686078575
419,sechura,-5.5569,-80.8222,301.4,58,18,4.83,PE,1686078333
420,valparaiso,-33.0393,-71.6273,295.28,49,0,5.66,CL,1686078352
421,san antonio de pale,-1.4014,5.6325,298.63,82,100,5.07,GQ,1686078339
422,gunjur,13.2019,-16.7339,301.19,65,0,3.6,GM,1686078575
423,jaciara,-15.9653,-54.9683,303.7,22,6,1.36,BR,1686078575
424,lazaro cardenas,17.9583,-102.2,304.71,52,0,4.98,MX,1686078355
425,kruisfontein,-34.0033,24.7314,284.17,60,0,1.25,ZA,1686078401
426,kouango,4.9934,19.9619,299.36,66,68,1.42,CF,1686078576
427,prince george,53.9166,-122.753,291.07,35,0,0.89,CA,1686078576
428,stonehouse,51.75,-2.2833,288.38,67,75,5.14,GB,1686078576
429,las khorey,11.1595,48.1967,305.35,60,100,2.39,SO,1686078576
430,canutama,-6.5339,-64.3831,303.03,71,26,0.71,BR,1686078576
431,charlestown,-32.95,151.6667,286.86,95,0,2.0,AU,1686078491
432,estancia,-11.2683,-37.4383,299.5,75,18,3.35,BR,1686078577
433,tyup,42.7276,78.3648,285.06,83,99,1.6,KG,1686078577
434,tommot,58.9564,126.2925,283.51,77,93,1.56,RU,1686078577
435,pangody,65.85,74.4859,286.95,54,29,3.4,RU,1686078371
436,viveiro,43.6623,-7.5934,294.95,77,100,4.31,ES,1686078577
437,nelson bay,-32.7167,152.15,287.59,98,0,2.24,AU,1686078577
438,acarau,-2.8856,-40.12,301.3,75,0,5.34,BR,1686078357
439,zouerate,22.7187,-12.4521,308.75,14,0,5.33,MR,1686078548
440,yenisarbademli,37.7078,31.3864,289.67,68,41,4.06,TR,1686078578
441,loukhi,66.0764,33.0381,278.62,63,15,1.47,RU,1686078578
442,sarangani,5.4033,125.4636,301.8,76,94,4.54,PH,1686078578
443,aykhal,66.0,111.5,273.35,73,0,3.28,RU,1686078331
444,dudinka,69.4058,86.1778,279.61,61,8,2.95,RU,1686078353
445,batticaloa,7.7102,81.6924,301.56,77,100,1.61,LK,1686078249
446,olinda,-8.0089,-34.8553,300.0,78,75,4.63,BR,1686078503
447,mando,10.7167,6.5667,299.93,73,90,1.42,NG,1686078579
448,buenaventura,3.8801,-77.0312,301.72,80,76,1.89,CO,1686078579
449,zhanaozen,43.3,52.8,298.08,49,100,7.86,KZ,1686078411
450,opuwo,-18.0607,13.84,291.86,27,0,1.92,NA,1686078396
451,palmer,42.1584,-72.3287,296.93,74,95,7.92,US,1686078188
452,alofi,-19.0595,-169.9187,298.23,74,98,9.58,NU,1686078401
453,naryn,41.4287,75.9911,284.68,70,99,2.56,KG,1686078579
454,beyneu,45.3167,55.2,298.6,52,85,7.39,KZ,1686078579
455,stung treng,13.5259,105.9683,296.14,99,100,1.43,KH,1686078579
456,yinchuan,38.4681,106.2731,295.26,36,100,2.62,CN,1686078580
457,zuera,41.8677,-0.7898,300.97,42,100,1.4,ES,1686078580
458,concordia,-31.393,-58.0209,297.47,76,6,6.26,AR,1686078580
459,maceio,-9.6658,-35.7353,298.84,83,75,2.57,BR,1686078186
460,port hedland,-20.3167,118.5667,288.18,88,89,3.6,AU,1686078580
461,santa terezinha,-29.9002,-50.0904,292.49,74,4,4.97,BR,1686078580
462,vadso,70.0744,29.7487,278.64,65,75,5.66,NO,1686078408
463,lake havasu city,34.4839,-114.3224,306.61,11,0,4.47,US,1686078581
464,beledweyne,4.7358,45.2036,301.27,61,67,9.12,SO,1686078581
465,konstantinovsk,47.5828,41.0922,290.48,52,80,2.68,RU,1686078581
466,puerto deseado,-47.7503,-65.8938,284.58,36,0,14.09,AR,1686078581
467,wladyslawowo,54.7909,18.4009,291.9,73,6,1.92,PL,1686078337
468,yallahs,17.8748,-76.5624,306.94,77,100,4.86,JM,1686078581
469,kismayo,-0.3582,42.5454,299.42,79,92,6.09,SO,1686078356
470,sainte-anne-des-monts,49.124,-66.4924,282.49,96,100,10.32,CA,1686078582
471,freetown,8.484,-13.2299,300.31,82,100,2.98,SL,1686078582
472,camalu,30.85,-116.0667,291.58,54,0,5.11,MX,1686078582
473,tashtyp,52.7939,89.8983,289.76,71,0,0.63,RU,1686078582
474,vodnyy,63.5046,53.4095,280.49,69,10,1.49,RU,1686078582
475,ternate,0.8,127.4,300.4,81,67,2.51,ID,1686078582
476,inari,68.906,27.0288,280.26,59,100,2.1,FI,1686078582
477,port augusta,-32.5,137.7667,291.11,77,10,8.65,AU,1686078345
478,xai-xai,-25.0519,33.6442,294.02,94,35,1.4,MZ,1686078390
479,maria la baja,9.9832,-75.3016,301.73,82,100,2.8,CO,1686078583
480,gadani,25.1185,66.7299,303.27,88,14,5.18,PK,1686078387
481,tarawa,1.419,172.984,302.2,79,20,3.09,KI,1686078583
482,san borja,-14.8167,-66.85,303.97,49,4,1.49,BO,1686078583
483,sinabang,2.4803,96.3801,299.82,80,100,0.36,ID,1686078398
484,pingliang,35.5392,106.6861,291.35,50,100,2.34,CN,1686078583
485,ventspils,57.3894,21.5606,286.11,88,0,0.0,LV,1686078584
486,jwaneng,-24.6004,24.7303,289.34,21,0,2.4,BW,1686078584
487,dalbandin,28.8947,64.4101,304.83,7,0,3.12,PK,1686078584
488,selfoss,63.9331,-20.9971,282.62,64,33,5.66,IS,1686078343
489,mainvilliers,48.45,1.4561,296.4,72,17,4.5,FR,1686078584
490,saudarkrokur,65.7461,-19.6394,281.0,71,96,1.27,IS,1686078411
491,izyum,49.2088,37.2485,289.18,59,100,1.01,UA,1686078585
492,toliara,-23.35,43.6667,295.49,59,0,4.28,MG,1686078585
493,urangan,-25.3,152.9,292.08,76,23,5.44,AU,1686078585
494,kudahuvadhoo,2.6708,72.8944,301.74,76,53,4.84,MV,1686078585
495,road town,18.4167,-64.6167,304.2,74,40,3.6,VG,1686078329
496,mahibadhoo,3.7833,72.9667,301.8,75,100,6.27,MV,1686078342
497,basco,20.4487,121.9702,300.68,82,84,7.47,PH,1686078585
498,qarazhal,48.0078,70.7903,294.18,37,1,1.27,KZ,1686078336
499,nagqu,31.5,92.0,280.18,51,100,3.2,CN,1686078319
500,rabigh,22.7986,39.0349,304.3,62,41,2.05,SA,1686078586
501,biltine,14.5333,20.9167,303.0,45,100,8.65,TD,1686078586
502,mantua,45.1667,10.7833,294.73,83,9,2.24,IT,1686078586
503,tumpat,6.1978,102.171,299.05,87,99,1.46,MY,1686078586
504,tomatlan,19.9333,-105.25,306.31,39,0,4.65,MX,1686078586
505,argostolion,38.1811,20.489,295.19,64,0,3.6,GR,1686078423
506,yuzhno-kurilsk,44.0306,145.8556,283.15,96,100,3.04,RU,1686078587
507,achinsk,56.2694,90.4993,291.5,78,9,2.33,RU,1686078587
508,menongue,-14.6585,17.691,290.07,37,1,1.78,AO,1686078587
509,yangshuo,24.7808,110.4897,296.67,97,6,1.19,CN,1686078505
510,verkhnevilyuysk,63.4453,120.3167,278.77,73,81,2.12,RU,1686078587
511,usogorsk,63.4106,48.6872,279.38,85,16,2.14,RU,1686078397
512,codrington,-38.2667,141.9667,287.13,70,100,3.04,AU,1686078356
513,egilsstadir,65.2653,-14.3948,280.1,76,100,8.23,IS,1686078244
514,sarkand,45.41,79.9186,292.59,41,75,3.97,KZ,1686078588
515,partur,19.6,76.2167,306.3,29,2,3.9,IN,1686078588
516,kawerau,-38.1,176.7,282.8,79,22,2.6,NZ,1686078588
517,sao jose da coroa grande,-8.8978,-35.1478,299.65,80,53,2.29,BR,1686078489
518,kisangani,0.5167,25.2,298.39,73,86,0.64,CD,1686078397
519,baoqing,46.3317,132.2111,285.6,90,77,2.06,CN,1686078325
520,belmonte,-15.8631,-38.8828,298.27,64,61,4.75,BR,1686078259
521,jumla,29.2747,82.1838,283.95,86,10,1.77,NP,1686078589
522,mirny,62.5353,113.9611,274.93,74,9,0.95,RU,1686078589
523,luderitz,-26.6481,15.1594,285.7,87,0,5.35,NA,1686078367
524,lincheng,19.9078,109.6858,299.19,91,88,2.93,CN,1686078589
525,bubaque,11.2833,-15.8333,300.81,72,100,7.3,GW,1686078589
526,eagle mountain,40.3141,-112.0069,302.95,28,33,2.68,US,1686078379
527,alice town,25.7167,-79.3,299.67,76,100,4.31,BS,1686078590
528,danielskuil,-28.1887,23.5395,285.31,24,0,3.59,ZA,1686078590
529,copala,16.65,-98.9833,305.35,50,1,5.05,MX,1686078590
530,penzance,50.1186,-5.5371,288.53,80,0,4.61,GB,1686078590
531,naze,28.3667,129.4833,296.14,95,95,3.98,JP,1686078590
532,shimokizukuri,40.8061,140.3861,288.44,80,76,2.39,JP,1686078591
533,revda,56.801,59.9303,284.74,96,100,4.19,RU,1686078365
534,mora,11.0461,14.1401,299.67,67,100,4.64,CM,1686078591
535,weno,7.4515,151.8468,300.12,89,75,2.57,FM,1686078337
536,inda silase,14.1031,38.2829,292.29,67,76,1.47,ET,1686078591
537,zhezqazghan,47.7833,67.7667,297.95,29,91,3.07,KZ,1686078591
538,oriximina,-1.7656,-55.8661,300.99,76,96,1.34,BR,1686078384
539,coquimbo,-29.9533,-71.3436,288.0,82,40,5.14,CL,1686078011
540,ramadi,33.4226,43.3058,307.11,21,25,1.89,IQ,1686078592
541,nuuk,64.1835,-51.7216,274.49,100,100,11.32,GL,1686078347
542,kerouane,9.2667,-9.0167,300.0,67,100,0.73,GN,1686078592
543,el rama,12.1596,-84.2195,306.91,50,100,1.13,NI,1686078592
544,buala,-8.145,159.5921,299.62,84,97,1.34,SB,1686078581
545,juneau,58.3019,-134.4197,283.83,96,100,4.63,US,1686078592
546,bikenibeu village,1.3673,173.1241,302.13,79,20,3.09,KI,1686078592
547,chipinge,-20.1883,32.6236,286.95,86,0,1.89,ZW,1686078592
548,sandnessjoen,66.0217,12.6316,280.44,76,75,1.54,NO,1686078361
549,sao sepe,-30.1606,-53.5653,296.25,60,0,1.61,BR,1686078314
550,kiffa,16.6166,-11.4045,312.69,11,6,2.02,MR,1686078593
551,long beach,33.767,-118.1892,294.8,65,100,4.63,US,1686078526
552,turkeli,41.9476,34.3386,290.12,87,8,2.93,TR,1686078593
553,bereket,39.2446,55.5154,299.84,54,100,7.32,TM,1686078469
554,bongor,10.2806,15.3722,304.81,46,100,1.57,TD,1686078593
555,mogok,22.9167,96.5,292.84,95,100,1.09,MM,1686078594
556,key west,24.5557,-81.7826,303.15,70,0,3.09,US,1686078460
557,shalqar,47.8333,59.6,303.43,24,20,4.44,KZ,1686078394
558,maputo,-25.9653,32.5892,293.83,78,20,1.03,MZ,1686078594
559,rumbek,6.802,29.6912,298.87,68,100,1.22,SS,1686078594
560,timaru,-44.4,171.25,275.41,97,73,1.69,NZ,1686078594
561,kavieng,-2.5744,150.7967,300.55,81,71,3.59,PG,1686078396
562,bechar,31.6167,-2.2167,303.76,25,100,5.83,DZ,1686078594
563,masterton,-40.9597,175.6575,280.48,94,98,1.09,NZ,1686078367
564,tendukheda,23.4,79.55,306.58,27,37,2.54,IN,1686078595
565,valdivia,-39.8142,-73.2459,287.2,81,78,1.57,CL,1686078472
566,kaa-khem,51.6833,94.7333,290.84,58,4,1.44,RU,1686078595
567,gamboula,4.1178,15.1393,296.98,80,80,1.8,CF,1686078595
568,jinka,5.65,36.65,292.09,69,45,1.7,ET,1686078595
569,tupi paulista,-21.3811,-51.5706,298.46,38,0,2.51,BR,1686078546
570,bulawayo,-20.15,28.5833,288.76,66,0,3.52,ZW,1686078596
571,puerto aysen,-45.4,-72.7,281.17,76,100,6.69,CL,1686078532
572,cartagena del chaira,1.3349,-74.8429,297.07,89,94,1.82,CO,1686078596
573,cam ranh,11.9214,109.1591,300.13,89,75,0.0,VN,1686078258
574,igarka,67.4667,86.5833,283.61,55,9,1.48,RU,1686078596
575,zhigalovo,54.8097,105.1578,279.59,64,26,0.25,RU,1686078596
576,vieste,41.8825,16.175,294.02,77,100,0.84,IT,1686078596
577,asekeyevo,53.5742,52.7972,281.98,92,5,1.87,RU,1686078596
578,trenggalek,-8.05,111.7167,296.75,97,100,2.04,ID,1686078597
579,escuintla,14.305,-90.785,307.53,61,100,2.33,GT,1686078597
580,gantang,26.92,119.6333,296.99,98,99,0.08,CN,1686078597
581,nicoya,10.1483,-85.452,304.93,58,100,1.56,CR,1686078597
582,puerto santa,-8.9906,-78.6456,297.55,72,52,3.87,PE,1686078597
583,raholt,60.2667,11.1833,293.19,28,0,3.09,NO,1686078597
584,puerto carreno,6.189,-67.4859,297.4,92,100,3.37,CO,1686078597
585,west fargo,46.875,-96.9004,305.15,40,0,3.6,US,1686078598
586,susanville,40.4163,-120.653,295.99,47,0,3.13,US,1686078386
